Time (s),x (m),y (m),z (m),vx (m/s),vy (m/s),vz (m/s),B_North (nT),B_East (nT),B_Down (nT),RollTorque (Nm),PitchTorque (Nm),YawTorque (Nm),OmegaX (rad/s),OmegaY (rad/s),OmegaZ (rad/s),Power (Watt)
10,-6.719667969064003,0.3805436787916973,0.008703426912894023,-0.0002635700701814695,-0.004775571374508803,0.006034422505112345,2.544693255387668e-05,4.607012632464484e-06,-3.6949257679200814e-06,-6.362922336907966e-06,-6.362922336907966e-06,-1.9470659603126663e-06,0.1999936370776631,0.0999936370776631,0.2999936370776631,0
20,-6.72186371262959,0.33276409505444005,0.06904575846230354,-0.00017557392484544696,-0.004780241105573617,0.006033911741879209,2.5462032407065717e-05,4.620240101156877e-06,-3.1728978395051654e-06,1.0968134650615766e-06,-6.368659937369194e-06,-6.368659937369194e-06,0.19995356516611446,0.0999995212608392,0.2999535651661145,0
30,-6.72317937255679,0.2849409430023744,0.1293790206721747,-8.755527836320916e-05,-0.004784284942791575,0.006032608658706703,2.5474498312790164e-05,4.633237087823331e-06,-2.650460910826962e-06,-9.168291439217968e-06,4.8068046669604e-06,-4.361486772257568e-06,0.19989685113657304,0.0999580576753608,0.299896851136573,0
40,-6.723614781913619,0.2370804842744244,0.18969529116571837,4.742530536907715e-07,-0.004787702360064983,0.006030513437869017,2.548432655367206e-05,4.6460048554169295e-06,-2.1276832849140492e-06,-3.4488620356222085e-06,-7.69175087853429e-06,-3.4488620356222085e-06,0.19987916520820376,0.09994409034091903,0.29987916520820374,0
50,-6.723169889936941,0.18918898535058146,0.24998664992142117,8.850305212129978e-05,-0.004790492915288406,0.0060276263681400865,2.5491514010006617e-05,4.65854452775113e-06,-1.6046333065678066e-06,-2.2848944430240157e-06,6.428353047799959e-06,-8.713247490823973e-06,0.19981362013537243,0.09994452197038227,0.29981362013537244,0
60,-6.721844762034991,0.14127271671169528,0.3102451803378045,0.00017651950212275072,-0.004792656250403567,0.006023947844743127,2.5496058159130772e-05,4.670857089065124e-06,-1.081379353645933e-06,-6.467634569212241e-06,-6.467634569212241e-06,-6.880735918017853e-07,0.19979674056681046,0.09988274470032027,0.2997967405668106,0
70,-6.719639579773503,0.09333795199878467,0.3704629702975936,0.0002645119885472318,-0.004794192091440713,0.006019478369282975,2.549795707499932e-05,4.682943383461681e-06,-5.579898283427085e-07,1.7468015874459458e-06,-8.247577406020489e-06,-6.500775818574542e-06,0.19976024450307656,0.09989266201700786,0.29976024450307676,0
80,-6.716554640845467,0.0453909671720017,0.43063211323112427,0.00035246890072808087,-0.004795100248546479,0.006014218549661325,2.5497209427969636e-05,4.694804114215581e-06,-3.453314846679212e-08,-9.068956188543443e-06,5.6954963969803805e-06,-3.373459791563061e-06,0.19970429254478025,0.09985113760230535,0.29970429254478054,0
90,-6.712590359024496,-0.002561960330615277,0.49074470917881574,0.0004403786334796473,-0.004795380615998215,0.006008169099974824,2.5493814484795226e-05,4.706439842950365e-06,4.889222612826815e-07,-2.7777076566436526e-06,-8.090377925623547e-06,-2.7777076566436526e-06,0.1997009427049914,0.09983460482156283,0.2997009427049917,0
100,-6.707747264101842,-0.05051455243446409,0.5507928658525403,0.0005282295887325636,-0.004795033172204829,0.00600133084039613,2.5487772108830056e-05,4.717850988681307e-06,1.0123079780409288e-06,-1.1744467700684722e-06,7.198203345940114e-06,-8.372650116008587e-06,0.19963887373059264,0.09983901868684333,0.29963887373059295,0
110,-6.70202600180706,-0.09846053126964224,0.6107686996957171,0.0006160101771670734,-0.004794057979694119,0.0059937046970379325,2.5479082760444725e-05,4.729037826722228e-06,1.5355555895024804e-06,-6.4768729005926776e-06,-6.4768729005926776e-06,4.397249980078869e-07,0.19962857736339343,0.0997742430235562,0.29962857736339377,0
120,-6.695427333712361,-0.14639362001201647,0.6706643369419627,0.00070370881984406,-0.004792455185086642,0.005985291701800004,2.5467747497657185e-05,4.7400004874538895e-06,2.0585967026455236e-06,2.5356407234164255e-06,-8.675124781347851e-06,-6.139484057931425e-06,0.19960010130846503,0.0997914968473393,0.2996001013084653,0
130,-6.6879521371206545,-0.19430754372396344,0.7304719146721254,0.0007913139498334259,-0.004790225019056142,0.00597609299219936,2.545376797698039e-05,4.750738954951494e-06,2.5813629524547883e-06,-8.863802578369131e-06,6.495476575017933e-06,-2.3683260033511983e-06,0.19954802123930593,0.09975031380922768,0.2995480212393062,0
140,-6.679601404937333,-0.24219603019464814,0.7901835818695389,0.0008788140138394725,-0.0047873677962765575,0.005966109811183553,2.543714645448997e-05,4.761253065468833e-06,3.103786010642249e-06,-2.097319303156073e-06,-8.459329873677588e-06,-2.097319303156073e-06,0.19955681708584677,0.09973354258462756,0.29955681708584697,0
150,-6.670376245525817,-0.2900528107797049,0.8497915004733252,0.0009661974738229341,-0.004783883915355654,0.005955343506927206,2.541788578711559e-05,4.771542505776477e-06,3.625797594364821e-06,3.1362270575906e-06,3.1362270575906e-06,-7.936391249684137e-06,0.19950213697475963,0.09973668119792992,0.29950213697475975,0
160,-6.660277882546888,-0.33787162124018805,0.9092878464295766,0.0010534528086193187,-0.004779773858755307,0.005943795532611831,2.539598943416012e-05,4.781606811351438e-06,4.147329474938278e-06,-6.425997105953452e-06,-6.425997105953452e-06,1.372594449337686e-06,0.19949362202247653,0.09966770432100269,0.2994936220224767,0
170,-6.6493076547818735,-0.38564620258065946,0.9686648107402555,0.0011405685155532175,-0.004775038192698486,0.005931467446189058,2.537146145905088e-05,4.7914453644154995e-06,4.668313486546558e-06,3.389554967660741e-06,-8.97606361450458e-06,-5.58650864684384e-06,0.1994715923182539,0.09968946748433949,0.29947159231825404,0
180,-6.6374670159396985,-0.43337030188627906,1.0279146005096427,0.0012275331120482416,-0.004769677567063011,0.005918360910127317,2.534430653132836e-05,4.801057391819543e-06,5.188681534945706e-06,-8.609667925194982e-06,7.177808170107131e-06,-1.4318597550878513e-06,0.19942382290169372,0.09964291960923483,0.2994238229016939,0
190,-6.624757534447867,-0.4810376731587665,1.0870294399881704,0.0013143351372322547,-0.004763692715262094,0.005904477691142093,2.5314529928877562e-05,4.810441962770957e-06,5.708365606161605e-06,-1.4670054705322063e-06,-8.797918363369869e-06,-1.4670054705322063e-06,0.19943956048503386,0.09962332669608175,0.29943956048503406,0
200,-6.6111808932274165,-0.5286420781511039,1.1460015716134748,0.0014009631535375632,-0.004757084454111749,0.005889819659909847,2.5282137540408546e-05,4.819597986401288e-06,6.227297775180688e-06,3.708555491517858e-06,3.708555491517858e-06,-7.471450468946531e-06,0.19938875347649931,0.09962924284503548,0.29938875347649946,0
210,-6.596738889451886,-0.5761772872008458,1.20482325704851,0.0014874057482957403,-0.004749853683685134,0.005874388790765712,2.5247135868192298e-05,4.828524209171176e-06,6.745410214632907e-06,-6.342601827066923e-06,-6.342601827066923e-06,2.068587863472732e-06,0.19938627275809304,0.09956264970967127,0.2993862727580932,0
220,-6.581433434290379,-0.6236370800619089,1.2634867782165535,0.0015736515353267613,-0.0047420013871538776,0.005858187161385064,2.5209532031059333e-05,4.837219212109565e-06,7.2626352034659414e-06,4.2427178988773935e-06,-9.16443241500219e-06,-4.921714516124797e-06,0.19937743532882904,0.09958067688454345,0.29937743532882927,0
230,-6.565266552634765,-0.671015246734708,1.3219844383329522,0.0016596891565221234,-0.004733528630616478,0.005841216952449095,2.516933376766872e-05,4.845681407884237e-06,7.77890513561004e-06,-8.35038582523259e-06,7.720177831415958e-06,-6.302079938166312e-07,0.19934110694621743,0.09953270593477442,0.2993411069462176,0
240,-6.548240382811059,-0.7183055882945144,1.380308562933439,0.0017455072834216413,-0.0047244365629138365,0.0058234804472944955,2.512654944005569e-05,4.853909037700555e-06,8.294152528632476e-06,-9.320906159910746e-07,-9.101812092296353e-06,-9.320906159910746e-07,0.1993630616856564,0.09951450836444643,0.29936306168565663,0
250,-6.5303571762751,-0.7655019177179041,1.4384515008988754,0.0018310946187836013,-0.004714726415432013,0.0058049800315474005,2.508118803746682e-05,4.861900168025437e-06,8.80831003238093e-06,4.2447732916281505e-06,4.2447732916281505e-06,-7.0308847477884874e-06,0.19931871671560034,0.09951482407498669,0.29931871671560056,0
260,-6.511619297292529,-0.8125980607071699,1.4964056254762441,0.0019164398981479712,-0.0047043995018922775,0.00578571819274168,2.503325918049227e-05,4.869652687133494e-06,9.321310437614852e-06,-6.247820582161902e-06,-6.247820582161902e-06,2.5039051226488273e-06,0.1993306772648032,0.09945273891422526,0.2993306772648035,0
270,-6.492029222603196,-0.8595878565125709,1.5541633352957596,0.002001531891392362,-0.004693457218128557,0.005765697519921759,2.4982773125504835e-05,4.877164301472288e-06,9.833086684623925e-06,5.035877160622569e-06,-5.118005459755382e-06,-5.118005459755382e-06,0.1993188132933807,0.09947059901284382,0.299318813293381,0
280,-6.47158954107003,-0.9064651587522947,1.6117170553839189,0.0020863594042804415,-0.004681901041852358,0.005744920703230072,2.492974076941694e-05,4.884432531843791e-06,1.034357187183292e-05,-5.798301005994189e-06,0.0,2.3082080245974188e-06,0.1993005865435582,0.09940316782915705,0.2993005865435585,0
290,-6.4503029533124705,-0.953223836230006,1.669059238172359,0.0021709112800025144,-0.004669732532405267,0.005723390533479317,2.48741736547666e-05,4.89145470939909e-06,1.0852699264391905e-05,-5.270612838257473e-07,-9.363898698364718e-06,-5.270612838257473e-07,0.1993160306200568,0.09939532080932198,0.2993160306200571,0
300,-6.428172271324534,-0.9998577737498575,1.7261823645023553,0.0022551764007079753,-0.004656953330499126,0.005701109901709635,2.4816083975144334e-05,4.898227971443515e-06,1.1360402302750984e-05,0.0,4.7121728090931875e-06,-2.844779113276886e-06,0.19927339758644658,0.09937709197685311,0.29927339758644694,0
310,-6.405200418077592,-1.0463608729288445,1.7830789446248203,0.002339143689029357,-0.004643565157943969,0.005678081798730898,2.4755484580973786e-05,4.904749257049477e-06,1.1866614611218738e-05,-6.169283117991124e-06,-8.835978751450922e-06,2.6666956334597965e-06,0.19929320485324648,0.09932092579092344,0.2992932048532469,0
320,-6.3813904271079585,-1.0927270530063726,1.839741519195653,0.002422802109597692,-0.004629569817363863,0.005654309314650222,2.4692388985659364e-05,4.911015302474472e-06,1.2371270006503457e-05,4.225229421168047e-06,0.0,-5.0288688722721805e-06,0.1992789850144336,0.09933095454623789,0.29927898501443406,0
330,-6.356745442089361,-1.1389502516509311,1.8961626602662842,0.0025061406705489293,-0.00461496919190071,0.005629795638384893,2.462681137211469e-05,4.917022636381794e-06,1.2874302506236117e-05,-6.124952537260833e-06,0.0,2.200001393493276e-06,0.1992671900231531,0.09925747788767282,0.2992671900231536,0
340,-6.331268716390408,-1.185024425763737,1.952334972269287,0.002589148425021125,-0.004599765244906163,0.00560454405716087,2.4558766599686672e-05,4.922767574861796e-06,1.3375646337474395e-05,4.612061533607134e-06,-9.577103976445692e-06,-4.965042442838558e-06,0.19928308721716004,0.09925909976669557,0.2992830872171605,0
350,-6.304963612617105,-1.2309435522792462,2.008251092998893,0.002671814472642158,-0.004583960019621754,0.005578557955997002,2.4488270211490864e-05,4.9282462162518335e-06,1.3875235945186808e-05,-3.0214496051125544e-06,8.444512238808523e-06,-3.0214496051125544e-06,0.1992385568313338,0.09922629497645219,0.2992385568313344,0
360,-6.277833602140576,-1.276701628962402,2.063903694586285,0.0027541279610077143,-0.0045675556388473475,0.005551840817175154,2.4415338442173574e-05,4.9334544357530956e-06,1.4373006000715695e-05,-6.581273026428858e-06,-9.136582428635442e-06,2.5553094022065832e-06,0.19925766312815452,0.09918288134916844,0.29925766312815516,0
370,-6.2498822646100205,-1.3222926752025137,2.1192854844695206,0.0028360780871492953,-0.004550554304598046,0.0055243962196964225,2.4339988226118157e-05,4.938387879843186e-06,1.4868891410218635e-05,4.145800633747575e-06,0.0,-5.031047851591342e-06,0.19923078804255007,0.09918923554125014,0.2992307880425508,0
380,-6.22111328745107,-1.3677107328036435,2.1743892063579437,0.0029176540989920047,-0.004532958297749673,0.005496227838723573,2.426223720611285e-05,4.943041960483507e-06,1.5362827323086977e-05,-6.459370654009781e-06,0.0,1.9101223087126645e-06,0.19922089081771122,0.09912112001910374,0.29922089081771186,0
390,-6.1915304653496,-1.4129498667713982,2.2292076411909645,0.002998845296801872,-0.00451476997767294,0.00546733944500993,2.4182103742498072e-05,4.947411849120934e-06,1.585474914034058e-05,4.3379142580701e-06,-9.733213208183669e-06,-5.395298950113569e-06,0.1992268377146753,0.09912408161113112,0.2992268377146759,0
400,-6.161137699721132,-1.4580041660959984,2.2837336080910453,0.0030796410346225016,-0.004495991781856454,0.005437734904314859,2.4099606922812772e-05,4.951492470484026e-06,1.634459252299792e-05,-3.345086192551251e-06,8.21949742022145e-06,-3.345086192551251e-06,0.19918185199988225,0.09909146198291524,0.2991818519998829,0
410,-6.129938998165916,-1.5028677445315293,2.337959965310792,0.0031600307217008053,-0.0044766262255186645,0.0054074181768060375,2.401476657195907e-05,4.9552784961743504e-06,1.683229340042061e-05,-1.0940458837871432e-06,-9.313525656786042e-06,-1.0940458837871432e-06,0.19920626371614866,0.09905465139623897,0.2992062637161493,0
420,-6.097938473909821,-1.5475347413712506,2.3918796111739833,0.0032400038239016092,-0.004456675901208911,0.005376393316448719,2.3927603262905724e-05,4.958764338054298e-06,1.7317787978631052e-05,3.905290206026091e-06,3.905290206026091e-06,-7.819422220217111e-06,0.19916245087793333,0.09906683948134748,0.29916245087793397,0
430,-6.065140345231124,-1.5919993222188678,2.445485485010452,0.003319549865110926,-0.004436143478397672,0.005344664470382137,2.3838138327951478e-05,4.961944141433565e-06,1.780101274860266e-05,-6.781553546837278e-06,-6.781553546837278e-06,2.4841693854300108e-06,0.19915330001508236,0.0989905405405592,0.29915330001508295,0
440,-6.031548934873332,-1.6362556797556491,2.4987705680846406,0.0033986584286276778,-0.004415031703056186,0.0053122358782832675,2.3746393870570317e-05,4.964811778057259e-06,1.8281904494521392e-05,3.831663134609147e-06,-9.822385342155129e-06,-5.990722207545983e-06,0.19914314802536115,0.09901020737641804,0.2991431480253617,0
450,-5.9971686694441475,-1.6802980345032894,2.5517278845177582,0.0034773191585436855,-0.004393343397225552,0.0052791118717181425,2.3652392777860278e-05,4.967360838899487e-06,1.876040030201747e-05,-9.259818545254719e-06,7.86216247296256e-06,-1.3976560722921566e-06,0.19909268954735027,0.09896656410882894,0.2990926895473507,0
460,-5.962004078800679,-1.7241206355824081,2.6043505022033666,0.003555521761111712,-0.00437108145857547,0.0052452968734808736,2.355615873361987e-05,4.969584626767592e-06,1.9236437566366702e-05,-1.7723403693198597e-06,-9.356550654122816e-06,-1.7723403693198597e-06,0.19910847294844286,0.09893585847654188,0.2991084729484434,0
470,-5.92605979542105,-1.7677177614665873,2.6566315337163116,0.003633256006101399,-0.004348248859952745,0.005210795396920623,2.345771623207455e-05,4.971476148723019e-06,1.9709954000659896e-05,3.519047340703314e-06,3.519047340703314e-06,-8.534112126079715e-06,0.19905059427793062,0.09894789890115806,0.29905059427793107,0
480,-5.889340553762502,-1.8110837207318449,2.7085641372148577,0.003710511728142888,-0.0043248486489197106,0.005175612045256688,2.3357090592278213e-05,4.9730281083264825e-06,2.0180887643939647e-05,-7.071462183491804e-06,-7.071462183491804e-06,1.642990558369932e-06,0.19903576619538813,0.09887386545338274,0.2990357661953885,0
490,-5.851851189606117,-1.8542128528014377,2.7601415173359114,0.0037872788280579753,-0.0043008839472826995,0.005139751510881898,2.3254307973213505e-05,4.974232897716248e-06,2.064917686930333e-05,3.1248180613696053e-06,-9.833620422929183e-06,-6.7088023615595775e-06,0.19901639440466726,0.09890396053561631,0.29901639440466765,0
500,-5.8135966393883045,-1.897099528685906,2.8113569260832345,0.003863547274178616,-0.004276357950610733,0.005103218574654531,2.3149395389616123e-05,4.975082589530145e-06,2.1114760391971222e-05,-9.79745910828033e-06,7.384424907000755e-06,-2.4130342012795745e-06,0.19896011043533254,0.09885842396404046,0.29896011043533294,0
510,-5.774581939519156,-1.9397381517182513,2.862203663708504,0.003939307103652632,-0.004251273927744533,0.005066018105178938,2.3042380728548366e-05,4.975568928683624e-06,2.1577577277318887e-05,-2.4977310054963697e-06,-9.262675431980922e-06,-2.4977310054963697e-06,0.19897047742831003,0.09883397720711848,0.2989704774283104,0
520,-5.734812225687818,-1.9821231582841585,2.9126750795851315,0.004014548423736449,-0.004225635220296047,0.005028155058075075,2.2933292766746774e-05,4.97568332401806e-06,2.2037566948872414e-05,3.0085613045143062e-06,3.0085613045143062e-06,-9.239274726563466e-06,0.19890541889512836,0.09884348609997741,0.2989054188951287,0
530,-5.694292732154986,-2.0242490185471693,2.962764573074722,0.004089261413074721,-0.004199445242138599,0.00498963447523715,2.28221611887696e-05,4.975416839835699e-06,2.2494669196265816e-05,-7.3115068635960836e-06,-7.3115068635960836e-06,7.861436298990409e-07,0.1988841751678131,0.09876861398828868,0.2988841751678134,0
540,-5.653028791032692,-2.0661102371687057,3.0124655943860636,0.004163436322966724,-0.004172707478887841,0.004950461484081565,2.2709016605969094e-05,4.974760187339929e-06,2.2948824183159103e-05,2.2559478232925883e-06,-9.75598672163599e-06,-7.500038898343402e-06,0.19885812571479047,0.09879394784347038,0.2988581257147907,0
550,-5.611025831551469,-2.1077013540228613,3.061771645426548,0.004237063478619308,-0.004145425487373627,0.004910641296784383,2.259389057631389e-05,4.973703716002127e-06,2.3399972455116515e-05,-1.0269679369432383e-05,6.7973996495202834e-06,-3.4722797199121e-06,0.19879601353795176,0.0987469811258532,0.2987960135379518,0
560,-5.56828937931508,-2.1490169449058634,3.110676280645909,0.004310133280386379,-0.004117602895102985,0.0048701792095084805,2.2476815625085543e-05,4.972237404878988e-06,2.3848054947443032e-05,-9.203824621558224e-06,-9.034724581753513e-06,-1.6910003980471056e-07,0.1987920004103532,0.09871996192746604,0.29879200041035325,0
570,-5.524825055542893,-2.1900516222401283,3.1591731078721863,0.0043826362049946945,-0.004089243399714314,0.004829080601620623,2.2357825266473678e-05,4.9703508539073995e-06,2.4293012992978786e-05,-1.7473540418756275e-06,8.154491314702977e-06,-9.901845356578604e-06,0.1987173506663093,0.09873816710339706,0.2987173506663094,0
580,-5.480638576300097,-2.2308000357728046,3.2072557891398055,0.004454562806755907,-0.004060350768422977,0.00478735093489864,2.223695402609234e-05,4.968033275207002e-06,2.4734788329849778e-05,-7.488891592094183e-06,-7.488891592094183e-06,-8.032836122853591e-08,0.19868925262869847,0.09866320744119074,0.29868925262869855,0
590,-5.435735751715837,-2.271256873268739,3.2549180415096877,0.004525903718764706,-0.004030928837458423,0.0047449957527289045,2.2114237464439685e-05,4.965273484424281e-06,2.5173323109174142e-05,1.267981857406046e-06,-9.580590099845147e-06,-8.312608242439101e-06,0.19865376651297822,0.09867621406098567,0.2986537665129782,0
600,-5.390122485189455,-2.3114168611977632,3.3021536378812795,0.004596649654082982,-0.004000981511493002,0.004702020679294316,2.1989712201321354e-05,4.9620598921556415e-06,2.5608559902722564e-05,-1.0658898394823021e-05,6.109032360214269e-06,-4.549866034608751e-06,0.19858498038070763,0.09862737348548574,0.2985849803807076,0
610,-5.343804772584961,-2.351274765416239,3.3489564077964227,0.004666791406909883,-0.003970512763062603,0.004658431418752995,2.186341594125601e-05,4.958380495491124e-06,2.6040441710531695e-05,-9.891611286292185e-06,-8.684328162875292e-06,-1.2072831234168928e-06,0.19857195970511715,0.098598201338295,0.29857195970511713,0
620,-5.2967887014138615,-2.3908253918427613,3.395320238234958,0.004736319853737686,-0.0039395266319792975,0.004614233754407875,2.173538749987994e-05,4.954222869724866e-06,2.646891196846989e-05,-2.801905273396827e-06,7.698148727562866e-06,-1.0500054000959694e-05,0.19849185431900182,0.09861262530981119,0.29849185431900177,0
630,-5.2490804500065105,-2.430063587127949,3.4412390744019867,0.0048052259544933695,-0.00390802722473611,0.004569433547867388,2.1605666831364114e-05,4.949574160282936e-06,2.689391455575345e-05,-7.597569869650228e-06,-7.597569869650228e-06,-9.7024874640901e-07,0.19845672506935566,0.09853835595232277,0.2984567250693556,0
640,-5.200686286672127,-2.4689842393182455,3.4867069205066947,0.004873500753665829,-0.0038760187139040806,0.004524036738197445,2.147429505685498e-05,4.94442107492442e-06,2.7315393802412563e-05,2.0388806974202468e-07,-9.301247222313648e-06,-9.097359152571623e-06,0.19841439803217456,0.0985451987765603,0.29841439803217457,0
650,-5.151612568847571,-2.507582278513656,3.531717840532644,0.004941135381418621,-0.0038435053375217663,0.0044780493410649285,2.134131449394637e-05,4.938749876276992e-06,2.773329449670633e-05,-1.095906026622139e-05,5.324366640268411e-06,-5.63469362595298e-06,0.19834041312791487,0.09850202516021365,0.298340413127915,0
660,-5.101865742235127,-2.545852677519336,3.5762659589994747,0.005008121054688195,-0.003810491398477329,0.004431477447872854,2.12067686871853e-05,4.932546374773701e-06,2.814756189248438e-05,-1.0514671727565294e-05,-8.229379350764608e-06,-2.2852923768006865e-06,0.19831804915702736,0.0984708846787014,0.29831804915702753,0
670,-5.051452339929322,-2.58379045249097,3.6203454617159014,0.005074449078267504,-0.0037769812638833626,0.004384327224887404,2.1070702439610727e-05,4.925795922064135e-06,2.8558141716495384e-05,-3.884601304139661e-06,7.139407026672143e-06,-1.1024008330811804e-05,0.19823301963589623,0.09848118765999432,0.29823301963589643,0
680,-5.000378981533014,-2.621390663573858,3.6639505965239505,0.005140110845874971,-0.0037429793644446086,0.004336604912357078,2.093316184531813e-05,4.918483404979303e-06,2.896498017564034e-05,-7.933605797739001e-06,-9.843359293082669e-06,-1.9097534953436695e-06,0.1981905976893246,0.09840615611443422,0.29819059768932477,0
690,-4.94865237226285,-2.6586484155356476,3.7070756740343445,0.005205097841208715,-0.0037084901938187016,0.004288316823624055,2.0794194323036863e-05,4.910593240136393e-06,2.936802396416997e-05,-8.953436147191534e-07,-8.915407338347101e-06,-9.810750953066254e-06,0.1981416255638005,0.09840646877578295,0.2981416255638008,0
700,-4.896279302044258,-2.6955588583926384,3.749715068352966,0.005269401638985988,-0.0036735183079700984,0.00423946934422805,2.0653848650700373e-05,4.9021093692767295e-06,2.9767220270824612e-05,-1.1173547363925244e-05,4.446747279742985e-06,-6.726800084182258e-06,0.1980629657218382,0.09836230433419685,0.29806296572183866,0
710,-4.843266644596123,-2.732117188029591,3.7918632177983205,0.005333013905967797,-0.003638068324517345,0.004190068931002808,2.0512175000981543e-05,4.893015255437674e-06,3.016251678591602e-05,-1.1044801304757256e-05,-7.692550363289915e-06,-3.352250941467341e-06,0.1980311583097169,0.09832935207508811,0.2980311583097173,0
720,-4.7896213565052905,-2.7683186468129786,3.833514625609929,0.00539592640196863,-0.0036021449220738047,0.0041401221111654314,2.0369224977756505e-05,4.883293880066939e-06,3.055386170834941e-05,-5.007686202596277e-06,6.464451591132077e-06,-1.1472137793728353e-05,0.1979417908605943,0.09833514333554952,0.2979417908605948,0
730,-4.735350476291039,-2.8041585241976104,3.8746638606475803,0.005458130980851272,-0.003565752839582021,0.004089635481398721,2.022505165345068e-05,4.8729277411958155e-06,3.094120375258477e-05,-7.708263617133822e-06,-1.0642669283387376e-05,-2.934405666253554e-06,0.19789278310471783,0.09826142490610072,0.29789278310471834,0
740,-4.680461123459692,-2.8396321573265704,3.9153055580813723,0.005519619591506655,-0.003528896875641833,0.004038615706926732,2.0079709607209675e-05,4.861898852796158e-06,3.132449215553631e-05,-1.9884550496512896e-06,-8.422904392267803e-06,-1.0411359441919092e-05,0.1978329220930732,0.09826163975147652,0.2978329220930737,0
750,-4.62496049754949,-2.874734931624405,3.9554344200724696,0.0055803842788187214,-0.0034915818878324097,0.003987069520583717,1.993325496382592e-05,4.850188745454407e-06,3.170367668340896e-05,-1.1310718517990221e-05,3.478956301872916e-06,-7.831762216117307e-06,0.19775021445484733,0.09821673906587637,0.2977502144548478,0
760,-4.568855877165914,-2.9094622813835014,3.9950452164445287,0.005640417184614272,-0.003453812792028332,0.0039350037218766265,1.9785745433338335e-05,4.837778468504563e-06,3.207870763847028e-05,-1.1454651384192903e-05,-7.100552705115995e-06,-4.3540986790769076e-06,0.19770909720176347,0.09818208382319125,0.297709097201764,0
770,-4.512154619007559,-2.943809690343599,4.03413278534571,0.005699710548597771,-0.003415594561709864,0.0038824251760413778,1.963724035120784e-05,4.824648593770878e-06,3.244953586575737e-05,-6.185706015802817e-06,5.658948342486066e-06,-1.1844654358288883e-05,0.19761601549485547,0.0981829125117157,0.297616015494856,0
780,-4.454864156882741,-2.9777726922643732,4.0726920339012205,0.005758256709271086,-0.003376932227267561,0.0038293408130930366,1.948780071895554e-05,4.810779221079635e-06,3.281611275971689e-05,-7.2756748725416945e-06,-1.1356770313441246e-05,-4.0810954408995525e-06,0.19755810703044294,0.0981130411281011,0.29755810703044344,0
790,-4.396992000717002,-3.011346871491036,4.110717938856336,0.005816048104838164,-0.0033378308753013422,0.003775757626870104,1.933748924513287e-05,4.796149985708245e-06,3.3178390270777677e-05,-3.0294178682960767e-06,-7.823553853981134e-06,-1.085297172227721e-05,0.1974924120322588,0.098106113285342,0.2974924120322593,0
800,-4.33854573555162,-3.044527863512908,4.148205547209832,0.005873077274094607,-0.0032982956479141803,0.003721682674073083,1.9186370386473833e-05,4.780740067948166e-06,3.353632091185381e-05,-1.1376365946911587e-05,2.4262916016411983e-06,-8.950074345270389e-06,0.19740641572407178,0.09806067342957923,0.2974064157240723,0
810,-4.279533020533309,-3.07731135551489,4.185149976837765,0.005929336857302164,-0.0032583317420005298,0.003667123073297491,1.903451038905958e-05,4.764528204966725e-06,3.388985776477861e-05,-1.170991953136229e-05,-6.480626844888498e-06,-5.229292686473794e-06,0.19735641139160548,0.09802326633457167,0.29735641139160596,0
820,-4.219961587895247,-3.1096930869217996,4.221546417107582,0.00598481959704812,-0.003217944408529635,0.0036120860040614886,1.8881977329302293e-05,4.7474927051602095e-06,3.423895448666652e-05,-7.4238465833103834e-06,4.7095974847328965e-06,-1.213344406804328e-05,0.1972603391701762,0.09801145609890302,0.29726033917017675,0
830,-4.1598392419295855,-3.141668849935518,4.25739012948245,0.006039518339089599,-0.0031771389518238558,0.003556578705828295,1.8728841154532618e-05,4.729611465198191e-06,3.458356531620305e-05,-6.57621266675864e-06,-1.1953715206663381e-05,-5.377502539904741e-06,0.19719994734240123,0.09794384224940463,0.29719994734240174,0
840,-4.099173857951597,-3.17323449006489,4.292676448115799,0.006093426033182755,-0.003135920728832132,0.003500608477023553,1.857517372294893e-05,4.710861989965219e-06,3.492364507986124e-05,-3.961627735208789e-06,-7.1150902134153306e-06,-1.107671794862412e-05,0.197126384127027,0.09793739758679762,0.29712638412702747,0
850,-4.037973381255598,-3.2043859066483362,4.327400780436017,0.006146535733896898,-0.0030942951483987247,0.0034441826740478102,1.8421048842659472e-05,4.691221415611412e-06,3.525914919804338e-05,-1.1363703232943638e-05,1.3007855524493302e-06,-1.0062917680494308e-05,0.1970380993452243,0.09788500775430581,0.29703809934522474,0
860,-3.976245826062809,-3.2351190533691336,4.361558607721241,0.006198840601413539,-0.0030522676705273615,0.0033873087102842675,1.8266542309520147e-05,4.670666535927799e-06,3.559003369114667e-05,-1.1759851084634558e-05,-5.8578087697126385e-06,-5.9020423149219195e-06,0.19697307207734813,0.09785205586030968,0.2969730720773485,0
870,-3.913999274461303,-3.265429938763312,4.395145485664198,0.0062503339023103725,-0.003009843805640913,0.0033299940551019657,1.811173194344057e-05,4.649173832265032e-06,3.5916255185552654e-05,-8.704123154677943e-06,3.6057700042293883e-06,-1.2309893158907331e-05,0.19687499089878518,0.09783445185720482,0.29687499089878566,0
880,-3.851241875338185,-3.295314626720123,4.4281570449270635,0.006301009010330225,-0.0029670291138367195,0.0032722462328545576,1.7956697622798697e-05,4.626719507214987e-06,3.623777091953789e-05,-7.181316482489826e-06,-7.181316482489826e-06,-6.827537188231267e-06,0.1968073909655259,0.0977747837315605,0.29680739096552644,0
890,-3.787981843304158,-3.3247692369750443,4.4605889916862935,0.006350859407134974,-0.0029238292041377043,0.003214072821874821,1.780152131657234e-05,4.603279522274094e-06,3.655453874910588e-05,-4.710475101065243e-06,-6.289761241450013e-06,-1.1000236342515257e-05,0.19672934802859002,0.0977576416654408,0.2967293480285906,0
900,-3.7242274576106262,-3.353789945595277,4.492437108167353,0.0063998786830444755,-0.002880249733739381,0.003155481453465065,1.7646287113761426e-05,4.578829639703867e-06,3.68665171537386e-05,-1.1242204135531736e-05,1.2337888440008882e-07,-1.1118825251131646e-05,0.19663912977091552,0.09770969098873104,0.2966391297709161,0
910,-3.659987061059481,-3.3823729854576867,4.523697253169362,0.006448060537760525,-0.00283629640725288,0.003096479810883575,1.749108124963982e-05,4.5533454687983415e-06,3.717366524206683e-05,-8.37606838821588e-06,-5.251347139979646e-06,-8.37606838821588e-06,0.19656711550257638,0.09768196406024944,0.29656711550257703,0
920,-3.595269058905729,-3.4105146467191614,4.554365362579562,0.0064953987810758675,-0.002791974975944122,0.0030370756283272455,1.7335992128340602e-05,4.526802516759314e-06,3.747594275745765e-05,-9.971173344448635e-06,2.3409994805653317e-06,-1.2312172825013965e-05,0.19646743942024417,0.09765824686453956,0.2964674394202448,0
930,-3.5300819177530944,-3.4382112772793345,4.584437449877605,0.006541887333568306,-0.0027472912369692314,0.00297727668991054,1.718111034124262e-05,4.499176244368314e-06,3.777331008351892e-05,-6.877133179643677e-06,-6.877133179643677e-06,-8.397248817376026e-06,0.19638948368971326,0.09760611481749662,0.2963894836897139,0
940,-3.46443416444276,-3.4654592832356568,4.613909606629608,0.006587520227279934,-0.0027022510326063292,0.002917090828640924,1.7026528680590892e-05,4.470442126628399e-06,3.8065728249518776e-05,-5.1808405924659235e-06,-5.3320740207413465e-06,-1.051291461320727e-05,0.19630964249129496,0.09757354070652574,0.2963096424912956,0
950,-3.398334384935395,-3.492255129330753,4.64277800297195,0.006632291606381526,-0.002656860249483798,0.0028565259253908967,1.6872342147748407e-05,4.4405757185292555e-06,3.835315893571952e-05,-1.0947183763094185e-05,-1.0691727844410854e-06,-1.2016356547535272e-05,0.1962163126148865,0.0975259718871308,0.296216312614887,0
960,-3.3317912231866025,-3.518595339392056,4.671038888084758,0.006676195727822138,-0.0026111248178051377,0.0027955899078667768,1.671864795544371e-05,4.409552726065046e-06,3.863556447862498e-05,-6.898292790853972e-06,-4.6673616713554285e-06,-1.15656544622094e-05,0.19613925243872196,0.09749112678702058,0.29613925243872247,0
970,-3.264813380015954,-3.5444764967636666,4.698688590655085,0.006719226961963943,-0.0025650507105705223,0.002734290749574356,1.656554552334651e-05,4.377349082605663e-06,3.891290787613998e-05,-1.1116154259008062e-05,9.187200809817558e-07,-1.2034874339989817e-05,0.19603668329374166,0.09746036389114092,0.29603668329374216,0
980,-3.197409611969741,-3.569895244730415,4.725723519329718,0.00676137979320236,-0.0025186439427951485,0.0026726364687815513,1.6413136466274618e-05,4.343941030688418e-06,3.918515279264095e-05,-6.428080028792602e-06,-6.428080028792602e-06,-9.998342563328037e-06,0.19595373112635317,0.09741451959426703,0.29595373112635365,0
990,-3.129588730177609,-3.594848286934091,4.752140163157606,0.006802648820571505,-0.0024719105707245036,0.0026106351274781973,1.626152457430986e-05,4.309305209258334e-06,3.945226356395693e-05,-5.257108647019248e-06,-8.60006158794442e-06,-8.60006158794442e-06,0.19586858718256214,0.09737012437488954,0.2958685871825625,0
1000,-3.0613595992031986,-3.619332387781808,4.777935092021852,0.006843028758335028,-0.0024248566910466253,0.0025482948303330874,1.611081578407886e-05,4.27341874634074e-06,3.971420520225981e-05,-1.0372152643916389e-05,-2.222201577007435e-06,-1.2594354220923825e-05,0.1957779349810453,0.09732415095303013,0.2957779349810456,0
1010,-2.9927311358889606,-3.6433443728464803,4.803104957061292,0.006882514436562378,-0.002377488440101481,0.0024856237236483896,1.5961118140438054e-05,4.236259357079975e-06,3.99709434008625e-05,-8.571957006240347e-06,-4.095636261570263e-06,-1.266759326781061e-05,0.195689560104015,0.0972878643977008,0.29568956010401526,0
1020,-2.9237123081952747,-3.6668811292593784,4.827646491081586,0.006921100801690537,-0.002329811993087538,0.0024226299943115584,1.581254174779265e-05,4.1978054470224445e-06,4.022244453892467e-05,-1.196692774834342e-05,-6.424754668274575e-07,-1.1324452281515962e-05,0.19558816401437137,0.09725211323251927,0.29558816401437166,0
1030,-2.8543121340340267,-3.68993960609473,4.851556508955815,0.006958782917071287,-0.0022818335632656403,0.002359321868744852,1.5665198710275336e-05,4.158036220460884e-06,4.046867568606466e-05,-1.1590594797129151e-05,-1.205484089104124e-07,-1.147004638821874e-05,0.1954966797147673,0.09720910502520033,0.2954966797147676,0
1040,-2.7845396800967857,-3.7125168147463605,4.874831908014572,0.006995555963504063,-0.0022335594011602664,0.00229570761185257,1.5519203060016486e-05,4.116931793590032e-06,4.070960460687685e-05,-4.814920171418378e-06,-1.3828620509679658e-05,-9.01370033826128e-06,0.19540946117076274,0.0971591055790827,0.29540946117076317,0
1050,-2.7144040606777184,-3.734609829296317,4.897469668425511,0.0070314152397544264,-0.0021849957937582704,0.0022317955259661265,1.5374670672751658e-05,4.074473312151779e-06,4.09451997653533e-05,-9.367606499115079e-06,-3.262401073355368e-06,-1.2630007572470446e-05,0.19531686007114776,0.0971162845147279,0.29531686007114816,0
1060,-2.6439144364914045,-3.7562157868754826,4.919466853562327,0.007066356163058245,-0.00213614906370519,0.0021675939497870535,1.523171917003781e-05,4.03064307317113e-06,4.1175430329209066e-05,-1.0074316129573403e-05,-3.5007781241614994e-06,-1.3575094253734903e-05,0.1952206061372779,0.09707677530073254,0.29522060613727824,0
1070,-2.573080013485662,-3.7773318880161284,4.940820610363178,0.007100374269611602,-0.0020870255684992075,0.0021031112573280473,1.5090467807385954e-05,3.985424650303006e-06,4.140026617411012e-05,-1.2287272763199256e-05,-2.3007289192664887e-06,-9.986543843932767e-06,0.19512244561323658,0.09703754234902222,0.29512244561323697,0
1080,-2.5019100416495585,-3.797955396996405,4.961528169678478,0.007133465215046516,-0.0020376316996828393,0.002038355856852159,1.4951037347667468e-05,3.938803022225388e-06,4.161967788780309e-05,-1.2411617198473824e-05,1.5975584947792053e-07,-1.2571373047951744e-05,0.19502014002125045,0.09700321366186716,0.29502014002125093,0
1090,-2.430413813816735,-3.818083642176735,4.981586846608098,0.007165624774892509,-0.0019879738820324515,0.0019733361898102222,1.4813549919214275e-05,3.890764703426809e-06,4.183363677414584e-05,-6.345021459623238e-06,-6.345021459623238e-06,-1.0331806272311209e-05,0.1949292808834371,0.09695815063275391,0.2949292808834376,0
1100,-2.3586006644641784,-3.837714016328087,5.000994040827925,0.007196848845024096,-0.0019380585727456613,0.0019080607297766146,1.4678128858110206e-05,3.841297876647413e-06,4.204211485703816e-05,-7.75586051019945e-06,-4.098011218117527e-06,-1.1853871728316978e-05,0.19483781411125248,0.096914998355974,0.2948378141112528,0
1110,-2.2864799685065935,-3.8568439769521197,5.019747236905767,0.007227133442094234,-0.0018878922606267142,0.0018425379813834495,1.454489853426323e-05,3.7903925261436445e-06,4.2245084884251835e-05,-1.1159716454413408e-05,-2.8194155680764284e-06,-1.3979132022489837e-05,0.19473754242649852,0.09686998776640966,0.2947375424264988,0
1120,-2.2140611400865096,-3.8754710465931654,5.03784400460659,0.007256474703953806,-0.0018374814652699035,0.0017767764792532852,1.4413984160956217e-05,3.7380405708586894e-06,4.2442520331159e-05,-8.468040898240968e-06,-3.978446874482278e-06,-1.2446487772723246e-05,0.1946442078164136,0.09682927254236716,0.2946442078164139,0
1130,-2.141353631360263,-3.8935928131420385,5.055281999187095,0.007284868890057193,-0.0017868327362411064,0.001710784786930434,1.4285511587697259e-05,3.6842359964957916e-06,4.263439540435849e-05,-1.2735480293417296e-05,2.52249608670379e-07,-1.2987729902087673e-05,0.1945338803209761,0.09679390190831863,0.2945338803209764,0
1140,-2.0683669312799875,-3.911206930131656,5.072058961679569,0.007312312381853972,-0.0017359526522575074,0.0016445714958109653,1.4159607076329678e-05,3.62897498541114e-06,4.282068504519879e-05,-1.175298990854133e-05,-3.746909948824272e-07,-1.1378298913658902e-05,0.1944351308615327,0.09675122670051764,0.2944351308615331,0
1150,-1.9951105643717693,-3.9283111170244376,5.0881727191650565,0.0073388016831668216,-0.001684847820365571,0.0015781452240714742,1.403639706051644e-05,3.572256043169344e-06,4.3001364933197434e-05,-5.366728159216568e-06,-1.4404697886586228e-05,-9.037969727369661e-06,0.19433951054549511,0.09670476412952081,0.29433951054549556,0
1160,-1.9215940895100763,-3.944903159491481,5.103621185035807,0.007364333420555681,-0.0016335248751173368,0.0015115146155967034,1.3916007888881848e-05,3.5140801205394184e-06,4.3176411489355923e-05,-1.152863425402357e-05,-1.957765936768575e-06,-1.3486400190792145e-05,0.19423996013680062,0.0966530179101662,0.2942399601368011,0
1170,-1.847827098688626,-3.960980909683498,5.118402359246983,0.007388904343668203,-0.001581990477745093,0.001444688338906087,1.3798565552276052e-05,3.454450729654976e-06,4.3345801879369396e-05,-9.010397528669511e-06,-5.5559593923092965e-06,-1.4566356920978808e-05,0.19414699908898703,0.09661246399974337,0.2941469990889875,0
1180,-1.7738192157878114,-3.9765422864934745,5.132514328557639,0.007412511325576585,-0.0015302513153344919,0.0013776750860792957,1.3684195395820656e-05,3.3933740530209287e-06,4.350951401673052e-05,-1.2161678368272811e-05,2.076882702277093e-07,-1.236936663850052e-05,0.19403585963525422,0.09657410349369344,0.29403585963525475,0
1190,-1.699580095338828,-3.9915852758110733,5.145955266760949,0.007435151363100796,-0.0014783140999961653,0.001310483571680854,1.357302181659705e-05,3.3308590440227596e-06,4.366752656572674e-05,-1.409207141650135e-05,-2.357244658496336e-06,-1.1734826758005013e-05,0.19393991442956374,0.0965252833367718,0.29393991442956424,0
1200,-1.6251194212846372,-4.006107930768729,5.158723434903669,0.007456821577118296,-0.001426185568035899,0.0012431225316838974,1.3465167948049259e-05,3.2669175175851133e-06,4.381981894433069e-05,-2.100337543241254e-06,-1.431887041045295e-05,-1.2218532867211695e-05,0.19384036139384267,0.09648958220108685,0.2938403613938431,0
1210,-1.5504469057378982,-4.020108371979447,5.170817181494841,0.007477519212860245,-0.0013738724791234175,0.0011756007223931338,1.3360755332386619e-05,3.2015642296359626e-06,4.3966371326982745e-05,-1.0875339022238532e-05,-8.069691924161821e-07,-1.1682308214654715e-05,0.19374326978796197,0.09642420551093703,0.2937432697879625,0
1220,-1.4755722877360062,-4.033584787766282,5.182234942703725,0.007497241640194291,-0.0013213816154598321,0.0011079269193670794,1.325990358248705e-05,3.1348169440626085e-06,4.410716464726532e-05,-8.804935136206639e-06,-6.870089663582694e-06,-1.5675024799789333e-05,0.19364684035905225,0.09639081273003144,0.29364684035905275,0
1230,-1.4005053319933696,-4.046535434383483,5.192975242546943,0.007515986353893985,-0.0012687197809438074,0.0010401099163396294,1.3162730035013044e-05,3.0666964858974205e-06,4.42421806004684e-05,-1.1949404884714662e-05,1.410900862694137e-07,-1.1808314798445249e-05,0.19352904915516886,0.09634611893358894,0.2935290491551694,0
1240,-1.325255827651059,-4.0589586362292955,5.203036693064835,0.007533750973894826,-0.0012158938003364887,0.0009721585241410212,1.3069349396657612e-05,2.997226779545425e-06,4.437140164604576e-05,-1.5388151454035747e-05,-4.476719851873735e-06,-1.091143160216201e-05,0.1934327480951155,0.0962982491186419,0.2934327480951161,0
1250,-1.2498335870239634,-4.070852786050402,5.212417994487025,0.007550533245537048,-0.0011629105184252462,0.0009040815696182484,1.2979873385631028e-05,2.926434870963164e-06,4.449481100996143e-05,-1.0126743364625387e-05,4.513249916917147e-06,-1.4639993281542533e-05,0.19331672509862863,0.09627943007399685,0.29331672509862927,0
1260,-1.1742484443455845,-4.0822163451380025,5.221117935387192,0.00756633103979513,-0.0011097767991862693,0.0008358878945549898,1.2894410370677092e-05,2.8543509328183605e-06,4.4612392686925626e-05,-8.977569724547969e-06,-1.5962051624570115e-05,-6.984481900022145e-06,0.19322317770470523,0.09619400748734531,0.2932231777047059,0
1270,-1.0985102545105994,-4.093047843515511,5.229135392827035,0.007581142353494106,-0.0010564995249460688,0.0007675863545910957,1.2813065010066279e-05,2.781008251802649e-06,4.472413144252033e-05,-7.426103128083871e-06,-7.733251795912864e-06,-1.5159354923996734e-05,0.19312353668461152,0.09617158016387332,0.29312353668461216,0
1280,-1.0226288918153328,-4.103345880117859,5.236469332489429,0.00759496530951271,-0.0010030855955419193,0.0006991858181416949,1.2735937893146389e-05,2.7064431974332022e-06,4.483001281521329e-05,-1.3872269013296955e-05,2.3170250167235306e-07,-1.3640566511624602e-05,0.193004575099772,0.09611735120422595,0.2930045750997728,0
1290,-0.9466142486962543,-4.113109122962402,5.243118808800769,0.007607798156973365,-0.0009495419274812881,0.0006306951653159672,1.2663125187137385e-05,2.6306951718623084e-06,4.493002311826105e-05,-1.5026792380253176e-05,-6.568196307561434e-06,-8.458596072691742e-06,0.1929138315866945,0.096073869780389,0.29291383158669526,0
1300,-0.8704762344666493,-4.122336309311418,5.249082965042508,0.0076196392714191,-0.0008958754531002855,0.0005621232868356345,1.2594718291930272e-05,2.553806540413992e-06,4.5024149441499514e-05,-1.1729866936347577e-05,3.880589949030178e-06,-1.5610456885377755e-05,0.19278811249437416,0.09604852213348639,0.29278811249437486,0
1310,-0.7942247740515813,-4.1310262458261775,5.254361033451867,0.007630487154977377,-0.0008420931197211813,0.0004934790829532169,1.2530803505688428e-05,2.4758225427809672e-06,4.511237965302274e-05,-9.058174113001256e-06,-9.058174113001256e-06,-9.599491047728469e-06,0.19269442314613805,0.09597854744192219,0.29269442314613886,0
1320,-0.7178698067212836,-4.139177808712589,5.258952335311749,0.007640340436510891,-0.0007882018888090195,0.0004247714623701022,1.2471461704049885e-05,2.3967911850399335e-06,4.519470240074896e-05,-4.542768925986217e-06,-1.1057230255070421e-05,-1.1057230255070421e-05,0.1925921462481841,0.09595272261863767,0.29259214624818486,0
1330,-0.6414212848231068,-4.14678994385841,5.262856281029797,0.0076491978717553605,-0.0007342087351273659,0.00035600934115447323,1.2416768035689918e-05,2.3167631128747076e-06,4.527110711387379e-05,-1.4277351846274244e-05,7.100003746017778e-07,-1.3567351471672466e-05,0.1924779414238482,0.09588635188085086,0.2924779414238489,0
1340,-0.5648891725121538,-4.153861666962005,5.266072370206664,0.007657058343444322,-0.00068012064589323,0.00028720164165913875,1.2366791636922796e-05,2.2357914666305343e-06,4.5341584004210664e-05,-7.090871556991711e-06,-8.369588058777198e-06,-1.546045961576891e-05,0.1923908670818408,0.09585054932895626,0.29239086708184153,0
1350,-0.4882834444807314,-4.160392063652653,5.268600191693442,0.0076639208614209765,-0.0006259446199311894,0.00021835729143931124,1.2321595367900321e-05,2.1539317190546465e-06,4.540612406741756e-05,-1.14068872111743e-05,3.0670308283206774e-06,-1.4473918039494978e-05,0.19225813810568806,0.09581497977254094,0.2922581381056889,0
1360,-0.41161408468674887,-4.1663802896023885,5.270439423638282,0.007669784562737077,-0.0005716876668267499,0.00014948522217037477,1.2281235572803326e-05,2.0712414968032883e-06,4.546471908411061e-05,-1.56066200305631e-05,-5.002560725291e-06,-1.0604059305272099e-05,0.1921694932028066,0.09575402997852898,0.29216949320280733,0
1370,-0.33489108508119164,-4.17182557062937,5.27158983352218,0.007674648711738899,-0.0005173568060789782,8.059436856568452e-05,1.2245761866221993e-05,1.987780387008937e-06,4.5517361620864084e-05,-1.1579138851355302e-07,-1.4098972006334179e-05,-1.3983180617820625e-05,0.19206189034226262,0.09573424169892496,0.29206189034226326,0
1380,-0.2581244443347999,-4.17672720279279,5.2720512781839455,0.007678512700140285,-0.00046295906625243375,1.1693667294440363e-05,1.2215216947684881e-05,1.9036097303992865e-06,4.556404503109609e-05,-1.268029262440065e-05,1.796174760281258e-06,-1.0884117864119392e-05,0.19196385516464595,0.09565114718793173,0.2919638551646466,0
1390,-0.18132416656408165,-4.181084552479273,5.271823703834348,0.0076813760470828074,-0.0004085014841284338,-5.720794410032472e-05,1.2189636446028505e-05,1.8187924026372483e-06,4.560476345584115e-05,-7.002478583613995e-06,-9.554271694519825e-06,-1.655675027813382e-05,0.1918722818699249,0.09562637935445263,0.29187228186992553,0
1400,-0.10450026005678818,-4.1848970564808035,5.270907146059454,0.0076832383991830185,-0.0003539911038556812,-0.000126101528283601,1.2169048795002703e-05,1.7333925857048393e-06,4.563951182440825e-05,-1.4336598784736116e-05,2.396739060360565e-06,-1.193985972437555e-05,0.19174288913261364,0.09557453421800031,0.2917428891326142,0
1410,-0.027662735996981744,-4.188164222064148,5.269301729813129,0.007684099530566822,-0.0002994349761002854,-0.0001949781492100619,1.2153475141188625e-05,1.6474755312804854e-06,4.566828585492503e-05,-1.6541244207468236e-05,-7.407135356305694e-06,-9.13410885116254e-06,0.19166346254706335,0.09551910637791027,0.2916634625470639,0
1420,0.049178392810176004,-4.190885627031776,5.26700766939874,0.00768395934289096,-0.0002448401571952069,-0.0002638288732054876,1.2142929284969815e-05,1.5611073181558569e-06,4.569108205476816e-05,-1.00076131117959e-05,6.3747098631021446e-06,-1.6382322974898047e-05,0.19153515725130804,0.09550661348765205,0.2915351572513085,0
1430,0.12601311321378625,-4.193060919774275,5.264025268440034,0.007682817865351609,-0.00019021370828915473,-0.00033264477004791144,1.2137417654949968e-05,1.4743546058032667e-06,4.570789772087938e-05,-9.01302948676346e-06,-1.6309342839946898e-05,-7.296313353183436e-06,0.19145036429257178,0.09541607275527147,0.29145036429257226,0
1440,0.20283141299259666,-4.1946898193142514,5.260354919841212,0.007680675254680093,-0.00013556269449496773,-0.00040141691404844905,1.2136939315859866e-05,1.3872843862366321e-06,4.571873093996761e-05,-4.601279868482106e-06,-9.82381589006003e-06,-1.4425095758542136e-05,0.19135270390041653,0.09540456931525138,0.2913527039004172,0
1450,0.2796232821302776,-4.195772115341712,5.255997105736198,0.007677531795125698,-8.089418403750753e-05,-0.00047013638513176823,1.214148600964583e-05,1.2999637363076187e-06,4.572358058859732e-05,-1.5517596317978233e-05,2.2756992057545535e-06,-1.324189711222368e-05,0.19123620396146454,0.0953371251939402,0.29123620396146527,0
1460,0.35637871409046207,-4.196307668240918,5.250952397427102,0.007673387898425591,-2.6215247401095567e-05,-0.0005387942699161602,1.2151042229091388e-05,1.2124595725444217e-06,4.572244633316271e-05,-5.3154574329567025e-06,-9.479260750354016e-06,-1.4794718183310718e-05,0.19116290458240376,0.0952985080210374,0.29116290458240446,0
1470,0.4330877070914204,-4.196296409108713,5.245221455311884,0.00766824410376181,2.8467043523476595e-05,-0.0006073816627931678,1.216558532299632e-05,1.124838410574839e-06,4.571532862974866e-05,-1.0764345484878879e-05,4.943881302997587e-06,-1.5708226787876465e-05,0.19102531619927277,0.0952675793942414,0.29102531619927346,0
1480,0.5097402653802402,-4.195738339764335,5.238805028801222,0.007662101077705348,8.31456162923333e-05,-0.0006758896670067313,1.2185085631630743e-05,1.037166131079813e-06,4.5702228723877644e-05,-1.5478140378036313e-05,-5.980672575929477e-06,-9.497467802106835e-06,0.19094291762845095,0.09519505939695898,0.2909429176284517,3.2797990671497
1490,0.5863264005063819,-4.19463353275066,5.231703956224601,0.007654959614147271,0.00013781339876226507,-0.0007443093957318054,1.2209506650899343e-05,9.495077541012225e-07,4.568314865014348e-05,1.5213101960585066e-07,-1.3707703740484277e-05,-1.3859834760090128e-05,0.19084175388924468,0.09517599487422157,0.2908417538892453,3.62706026645394
1500,0.6628361325944817,-4.192982131326939,5.2239191647256105,0.007646820634216882,0.00019246331994481172,-0.0008126319731524065,1.2238805223398649e-05,8.619272233812884e-07,4.565809123173181e-05,-1.3800290810659923e-05,3.0625395568818297e-06,-1.0737751253778093e-05,0.19073843934989734,0.09508654711828464,0.290738439349898,4.035715838991887
1510,0.7392594916162702,-4.190784349452973,5.2154516701464635,0.007637685186186899,0.00024708831086064643,-0.0008808485355390425,1.2272931754330021e-05,7.744872022444706e-07,4.562706007982774e-05,-5.843653332676987e-06,-1.069939567135803e-05,-1.6543049004035016e-05,0.1906514273651843,0.09506834917876414,0.290651427365185,2.4921052679653544
1520,0.8155865186614781,-4.18804047176475,5.206302576901747,0.007627554445365615,0.00030168130539422633,-0.0009489502323254801,1.2311830450046659e-05,6.87248882349823e-07,4.5590059592910524e-05,-1.4844229131670649e-05,3.7396298684265096e-06,-1.110459926324414e-05,0.19052334878410007,0.0950204156160873,0.29052334878410085,4.241618500644506
1530,0.8918072672075991,-4.184750853541529,5.1964730778414125,0.00761642971397602,0.000356235241148677,-0.001016928227184803,1.2355439576865872e-05,6.002718064467818e-07,4.55470949559362e-05,-1.6665508606245533e-05,-8.524362100379488e-06,-8.141146505866045e-06,0.19045248177530705,0.09496380792818458,0.29045248177530786,3.075644976331965
1540,0.9679118043883771,-4.180915920664386,5.185964454103003,0.007604312421021856,0.0004107430603008745,-0.001084773699104711,1.2403691737668698e-05,5.136137060644083e-07,4.549817213940767e-05,-9.172078312773648e-06,7.41923388901931e-06,-1.659131220179296e-05,0.19032400174045708,0.09495696659143295,0.29032400174045786,4.411052882277608
1550,1.0438902122608908,-4.176536169566197,5.174778074953136,0.007591204122140576,0.0004651977104566898,-0.00115247784346201,1.2456514163738003e-05,4.273303548573778e-07,4.5443297898333556e-05,-9.249621864219218e-06,-1.5910257121022175e-05,-6.660635256802957e-06,0.1902452785372799,0.09486072060385727,0.29024527853728066,2.823313570893057
1560,1.1197325890710992,-4.171612167173065,5.162915397618234,0.00757710649944316,0.0005195921455063576,-0.0012200318730962432,1.251382901925241e-05,3.4147543812548807e-07,4.538247977107521e-05,-3.116470258484382e-06,-1.065094283013175e-05,-1.3767413088616131e-05,0.19015078135825353,0.09485704127215541,0.29015078135825423,2.1138940547864706
1570,1.1954290505177223,-4.16614455083721,5.150377967104549,0.007562021361340752,0.0005739193264799327,-0.0012874270193824057,1.2575553715855465e-05,2.561004388209416e-07,4.5315726078082826e-05,-1.5713082547336137e-05,3.3881048263037284e-06,-1.2324977721032407e-05,0.19003550701628036,0.09478168526124434,0.290035507016281,4.7343673451165635
1580,1.270969731014321,-4.160134028261285,5.137167416007438,0.007545950642358114,0.0006281722224027908,-0.0013546545333026937,1.2641601234754872e-05,1.712545401624971e-07,4.524304592052116e-05,-4.608021010034743e-06,-1.0533439636117523e-05,-1.5141460646152266e-05,0.18997148274618095,0.0947447111170184,0.2899714827461816,1.9548227845456079
1590,1.346344784949444,-4.153581377414147,5.123285464309933,0.007528896402933795,0.0006823438111511372,-0.0014217056865172269,1.2711880453872616e-05,8.698454479077374e-08,4.5164449178785065e-05,-9.521270823789702e-06,5.511619446104472e-06,-1.5032890269894173e-05,0.18983228604976143,0.09471443081507334,0.28983228604976213,4.392091673007085
1600,1.4215443879447116,-4.146487446438075,5.108733919170622,0.007510860829207032,0.0007364270803074775,-0.0014885717724336862,1.2786296477660477e-05,3.3348102271220426e-09,4.507994651090503e-05,-1.5983670050349162e-05,-7.398696308040443e-06,-8.58497374230872e-06,0.1897591003561619,0.09464592598295925,0.28975910035616276,3.2694800367584294
1610,1.4965587381107037,-4.1388531535474264,5.093514674700828,0.007491846232791298,0.0007904150280160061,-0.0015552441072758068,1.2864750967313182e-05,-7.965279975844339e-08,4.498954935084404e-05,-1.5596434719947556e-06,-1.5596434719947556e-06,-1.4933778848321619e-05,0.18965012484995927,0.09464429222578355,0.2896501248499601,3.6285289586256204
1620,1.5713780573005107,-4.130679486918742,5.077629711731103,0.007471855050534475,0.0008443006638378695,-0.0016217140311506654,1.2947142469248985e-05,-1.6193894840513766e-07,4.4893269906685515e-05,-1.2738060294679222e-05,-5.5262895707768825e-06,-5.5262895707768825e-06,0.18956358803625362,0.09454339396867634,0.2895635880362544,3.9887902984632033
1630,1.645992592360826,-4.121967504572307,5.061081097567076,0.007450889844265593,0.0008980770096062538,-0.0016879729091146922,1.3033366739881926e-05,-2.434868445027926e-07,4.4791121158712964e-05,-4.3548401993760894e-06,-1.1279159845126777e-05,-1.5634000044502867e-05,0.1894825189207382,0.09453799923060632,0.289482518920739,2.493503614335423
1640,1.7203926163804322,-4.112718334245148,5.043870985734621,0.007428953300528083,0.0009517371002812499,-0.0017540121322383462,1.3123317064877093e-05,-3.242622469789376e-07,4.4683116857382656e-05,-1.55387205628581e-05,4.1795184278406925e-06,-1.1359202135017404e-05,0.18935865244370198,0.09447778596302546,0.28935865244370274,4.344361783897074
1650,1.7945684299359557,-4.102933173255502,5.026001615714412,0.0074060482302995105,0.001005273984804443,-0.0018198231186693802,1.3216884571255755e-05,-4.0423345637994224e-07,4.4569271521188704e-05,-1.553991047245281e-05,-9.862116236969765e-06,-5.677794235483046e-06,0.18929929373267448,0.09442847492397888,0.2892992937326752,2.9694439143719613
1660,1.8685103623347503,-4.092613288358717,5.007475312665832,0.00738217756869772,0.0010586807269531765,-0.0018853973146946267,1.3313958530898933e-05,-4.833712941625563e-07,4.444960043442232e-05,-9.075779353841686e-06,7.061124128459924e-06,-1.613690348230161e-05,0.18916863913523915,0.09441651303022797,0.2891686391352399,4.4548893194931605
1670,1.9422087728547759,-4.081760015594635,4.988294487140282,0.007357344374673346,0.0011119504061944312,-0.0019507261958002285,1.341442665418133e-05,-5.616490707625489e-07,4.432411964482502e-05,-1.3792222047612845e-05,-6.469853821007984e-06,-7.322368226604861e-06,0.1890955890621267,0.09433421404026503,0.2890955890621274,2.657507894785426
1680,2.0156540519813277,-4.070374760126421,4.968461634783893,0.007331551830688641,0.0011650761185382711,-0.002015801267730236,1.3518175372650135e-05,-6.390425434407938e-07,4.419284596113699e-05,-4.784728802270324e-08,-1.2352989950045173e-05,-1.230514266202247e-05,0.18899999107111895,0.09433322125774114,0.2889999910711195,2.358098970758743
1690,2.0888366226404944,-4.058458996070869,4.947979336029662,0.00730480324238255,0.0012180509773907864,-0.0020806140675435044,1.3625090109842615e-05,-7.155298649251244e-07,4.405579695054106e-05,-1.4438497333806997e-05,4.202280029309145e-06,-1.0236217304497852e-05,0.1889024205758757,0.09424336563213932,0.2889024205758763,4.666078384340674
1700,2.1617469414291883,-4.046014266320184,4.926850255779029,0.007277102038222013,0.001270868114406481,-0.002145156164668787,1.3735055539509723e-05,-7.910915238699009e-07,4.391299093600281e-05,-4.260360834117966e-06,-1.1253350045318426e-05,-1.551371087943639e-05,0.18883388522339198,0.0942245792390894,0.28883388522339254,2.211053759357497
1710,2.2343754998416268,-4.033042182355231,4.905077143072904,0.007248451769139384,0.0013235206803400407,-0.0022094191619579625,1.384795583067874e-05,-8.657102781460055e-07,4.3764446993508196e-05,-1.4332277093802897e-05,5.018085757830961e-06,-9.314191335971936e-06,0.18870356233309704,0.09418051590624289,0.28870356233309763,4.186504659743364
1720,2.306712825492115,-4.019544424050283,4.882662830752183,0.007218856108155971,0.0013760018458974135,-0.002273394696737298,1.3963674879144209e-05,-9.393710819531876e-07,4.3610184949198356e-05,-1.5867370000398408e-05,-9.067127824468727e-06,-6.800242175929681e-06,0.18864510908767645,0.09412654705479313,0.2886451090876771,3.3127243921379037
1730,2.3787494833339964,-4.005522739469252,4.8596102351077555,0.007188318849991597,0.0014283048025861402,-0.0023370744418566595,1.4082096525122564e-05,-1.0120610077161773e-06,4.345022537640365e-05,-7.679793193660671e-06,8.126441101535943e-06,-1.5806234295196614e-05,0.18852377241130006,0.09412630005633009,0.2885237724113007,4.064625261396127
1740,2.4504760768746245,-3.9909789446534285,4.8359223555200295,0.007156843910660147,0.0014804227635648601,-0.002400450106736586,1.4203104756939915e-05,-1.083769163687016e-06,4.32845895925763e-05,-1.0209220640267382e-05,-1.0209220640267382e-05,-5.540581335393011e-06,0.18845438087359398,0.09403459936192937,0.28845438087359465,3.5030132946847576
1750,2.521883249386223,-3.975914923400722,4.811602274087998,0.007124435327051042,0.0015323489644919264,-0.002463513438413119,1.4326583900745332e-05,-1.1544866081303588e-06,4.311329965612395e-05,-1.496297199239184e-06,-1.0825956093412407e-05,-1.2322253292651591e-05,0.1883697784658936,0.09402917399747705,0.28836977846589423,2.3921553022670357
1760,2.592961685112493,-3.9603326270364314,4.786653155247875,0.007091097256496578,0.001584076664373054,-0.002526256222580302,1.4452418796351104e-05,-1.2242062609173586e-06,4.293637836314338e-05,-1.4893697878438088e-05,4.252998197593731e-06,-1.0640699680844356e-05,0.18826432782800293,0.09395405619040276,0.2882643278280035,4.674809722355908
1770,2.663702110470814,-3.9442340741755317,4.761078245381309,0.007056833976325085,0.0016355991464079241,-0.0025886702846302447,1.4580494959400196e-05,-1.292922813298669e-06,4.275384924405667e-05,-3.6267647871097424e-06,-1.0877579504632013e-05,-1.4504344291741755e-05,0.18820350612070808,0.09392965164341689,0.2882035061207086,2.394986919808887
1780,2.734095295249918,-3.9276213504765067,4.7348808724132105,0.00702164988339984,0.0016869097188356714,-0.0026507474906906554,1.4710698730145307e-05,-1.3606326365691606e-06,4.256573656014962e-05,-7.556889118022173e-06,5.619743379882563e-06,-1.3176632497904736e-05,0.18807735710671358,0.09389569942278475,0.2880773571067142,4.453530818878324
1790,2.8041320538028653,-3.9104966083867354,4.708064445399223,0.006985549493643686,0.001738001715779167,-0.002712479748659723,1.4842917409197825e-05,-1.4273336902774847e-06,4.237206530001374e-05,-1.531818074513364e-05,-8.325717022681398e-06,-6.992463722452241e-06,0.18801898344709989,0.09383679633255909,0.2880189834471005,3.164948799577587
1800,2.87380324623521,-3.8928620668794363,4.680632454102854,0.006948537441549309,0.0017888684980880197,-0.0027738590092382586,1.4977039380666782e-05,-1.493025430573506e-06,4.2172861175892616e-05,-6.200267949802865e-07,-6.200267949802865e-07,-1.4899934421585227e-05,0.18791329860218817,0.093836901616422,0.2879132986021887,3.3743223552599444
1810,2.9430997795881892,-3.8747200111821876,4.652588468562302,0.0069106184796751055,0.0018395034541802116,-0.002834877266958969,1.511295422315863e-05,-1.5577087192268141e-06,4.196815061993354e-05,-1.030063433933341e-05,-1.4316478506386837e-05,-4.015844167053427e-06,0.18784605126874165,0.09373177516616561,0.28784605126874224,4.1536732399287954
1820,3.0120126090167956,-3.856072792497048,4.6239361386469975,0.006871797478126593,0.0018899000008822736,-0.002895526561212764,1.5250552809149727e-05,-1.621385733790765e-06,4.175796078034541e-05,-2.2011552260817618e-06,-1.0809197517386977e-05,-1.3010352743468738e-05,0.18776429721065943,0.09373932142075116,0.28776429721066,2.4896830217064703
